NOME,INDIRIZZO,lat,lon,modalita_iscrizione,giorni_orari,note
EUREKA - RACCOLGO LE IDEE,"Via XXI Aprile, 35 - Piacenza",45.055827,9.677487,"Iscrizioni presso Coop. Sociale Eureka, via Manfredi 18. Info: 0523 480463 – 327 1220935.","Lunedì–Venerdì 14.45–18.45","Le rette mensili sono calcolate in base a fasce di reddito, giorni di frequenza e servizio richiesto. Destinatari: 15–18 anni."
EUREKA - CERCHIO ROSSO,"Via Penitenti, 51 - Piacenza",45.052125,9.708293,"Iscrizioni presso Coop. Sociale Eureka, via Manfredi 18. Info: 0523 480463 – 327 1220935.","Lunedì–Venerdì 14.45–18.45","Le rette mensili sono calcolate in base a fasce di reddito, giorni di frequenza e servizio richiesto. Destinatari: 15–18 anni."
Centro Socio Educativo Tandem – Casa del Fanciullo,"Via Casa del Fanciullo, 1 – I Vaccari – Piacenza",44.995445,9.742665,"Per informazioni e iscrizioni: Tel. 0523 506128 • Email: segreteria@casadelfanciullo.eu","Lunedì–Venerdì 14.00–18.00 (possibile prolungamento fino alle 21.00)","Attività di sostegno scolastico, socializzazione, ricreative, sportive e formative. Rette in base al reddito."
CARITAS,"Via Giordani, 21 - Piacenza",45.046394,9.692743,"Iscrizione presso Centro di Ascolto Caritas, via Giordani 21 – Lunedì–Venerdì 9.30–12.00 (su appuntamento). Riservato a famiglie con difficoltà di accesso. Tel. 345 9232521.","Lunedì e Giovedì 14.00–16.00","Attività gratuita previa iscrizione."
STUDIA CON NOI! Laboratorio a cura di Mondo Aperto APS,"Via Nasolini 3, Piacenza (presso ISII Marconi)",45.052650,9.691380,"Iscrizione presso La Casa delle Parole, Via Tibini 1/A. Referente: Simona Calì, cell. 3319335173.","Martedì e Giovedì 14.30–16.30","Attività gratuita previa iscrizione. Priorità ad alunni segnalati da scuole o servizi sociali."
CENTRO TICE,"Galleria di Piazza Cavalli, 7/B - Piacenza",45.052793,9.693566,"Iscrizioni presso la sede. Info: 393 9012463.","Dal Lunedì al Venerdì, pomeriggi su appuntamento.","Attività a pagamento con pacchetti personalizzabili. Destinatari: studenti con BES, autismo, DSA."
