NOME,INDIRIZZO,lat,lon,modalita_iscrizione,giorni_orari,note
EUREKA - SCARAPAN,"Via Molinari, 35 - Piacenza",45.040343,9.709705,"Le iscrizioni vengono effettuate presso la Coop. Sociale Eureka, via Manfredi 18. Per informazioni: 0523 609555 (14.15–18.15), 0523 756677 (9.00–15.00).","Lunedì–Venerdì 12.15–18.15 con mensa • Martedì–Mercoledì–Giovedì 14.15–18.15 • Attivo trasporto dalle scuole De Amicis e Caduti sul Lavoro.","Le rette mensili sono calcolate in base a fasce di reddito, giorni di frequenza e servizio richiesto."
IL MELOGRANO,"Corso Vittorio Emanuele II, 158 - Piacenza",45.049143,9.688861,"Per informazioni e iscrizioni: Tel. 370 3202644.","Mercoledì e Venerdì 14.00–17.30 • Sabato 9.00–12.00 • Inizio 16 settembre 2024.","Svolgimento compiti, studio, recupero, potenziamento, lavoro sul metodo di studio e la motivazione. Costi: 5 €/ora."
PIANETA COMPITI - CENTRO PER LE FAMIGLIE,"Centro per le Famiglie, Galleria del Sole 67, Quartiere Farnesiana - Piacenza",45.037554,9.714889,"Servizio gratuito, senza iscrizione. Al primo accesso occorre la presenza di un genitore. Tel. 0523 492380; Cell. 349 7627122.","Martedì e Venerdì 16.30–18.30.","Svolgimento compiti, studio, recupero. Costi: gratuito."
CARITAS,"Via Giordani, 21 - Piacenza",45.046394,9.692743,"Iscrizione presso il Centro di Ascolto Caritas, via Giordani 21 – dal Lunedì al Venerdì 9.30–12.00 (preferibilmente su appuntamento). Riservato a famiglie con difficoltà di accesso ad altri doposcuola del territorio. Per informazioni: Tel. 345 9232521.","Martedì e Venerdì 16.30–18.00 • Inizio 7 ottobre 2024.","Attività totalmente gratuita previa iscrizione."
DOPOSCUOLA SACRA FAMIGLIA,"Oratorio Sacra Famiglia, Via Casteggio 32 - Piacenza",45.052767,9.672075,"Referente: Carlo Tedaldi 329 2618323; Anna Pallanca 338 8368267.","Lunedì e Giovedì 16.00–18.00.","Attività gratuita, avviata da marzo 2025, gestita da volontari (insegnanti in pensione e persone con competenze specifiche). Disponibili per supporto compiti a bambini/ragazzini primaria e secondaria di 1°. Capienza circa 15 studenti."
DOPOSCUOLA CORPUS DOMINI,"Oratorio Corpus Domini, Via Farnesiana 24 - Piacenza",45.042131,9.707450,"Referente: Elena Ponginebbi 349 4001164.","Venerdì 16.30–18.00 (possibilità anche Martedì, ma non ci sono state adesioni).","Supporto compiti e studio da parte di volontari (ex insegnanti). Coinvolti studenti delle scuole Cassinari, Colombini, Gioia, Respighi per attività PCTO. Tessera ANSPI obbligatoria (10 €). Quote: 1 studente 20 €/anno • 2 studenti stessa famiglia 15 €/anno ciascuno • 3 studenti stessa famiglia 10 €/anno ciascuno."

